{
	"type":"FeatureCollection",
	"features":[
	{
		"type":"Feature",
		"properties":
		{
			"category":"Teatr",
			"city":"Radom",
			"street":"Jagielloński"
		},
			"geometry":
			{
				"type":"Point",
				"coordinates":[
					21.155092,
					51.404473
				]
			}
		},
	{
		"type":"Feature",
		"properties":
		{
			"category":"Teatr",
			"city":"Warszawa",
			"street":"Grójecka"
		},
			"geometry":
			{
				"type":"Point",
				"coordinates":[
					20.97997,
					52.21448
				]
			}
		},
	{
		"type":"Feature",
		"properties":
		{
			"category":"Teatr",
			"city":"Warszawa",
			"street":"Nowogrodzka 49"
		},
			"geometry":
			{
				"type":"Point",
				"coordinates":[
					21.00748,
					52.22758
				]
			}
		},
	{
		"type":"Feature",
		"properties":
		{
			"category":"Teatr",
			"city":"Warszawa",
			"street":"Marszałkowska"
		},
			"geometry":
			{
				"type":"Point",
				"coordinates":[
					21.01606,
					52.223685
				]
			}
		},
	{
		"type":"Feature",
		"properties":
		{
			"category":"Teatr",
			"city":"Warszawa",
			"street":"Niepodległości"
		},
			"geometry":
			{
				"type":"Point",
				"coordinates":[
					21.009918,
					52.202988
				]
			}
		}
	]
}